[
  {
    "id": 1,
    "location": "Birmingham",
    "Latitude": 52.489471,
    "Longitude": -1.898575
  },
  {
    "id": 2,
    "location": "Cardiff",
    "Latitude": 51.481583,
    "Longitude": -3.17909
  },
  {
    "id": 3,
    "location": "Liverpool",
    "Latitude": 53.400002,
    "Longitude": -2.983333
  },
  {
    "id": 4,
    "location": "Newcastle Upon Tyne",
    "Latitude": 54.966667,
    "Longitude": -1.6
  },
  {
    "id": 6,
    "location": "Sheffield",
    "Latitude": 53.383331,
    "Longitude": -1.466667
  },
  {
    "id": 7,
    "location": "Leeds",
    "Latitude": 53.801277,
    "Longitude": -1.548567
  },
  {
    "id": 8,
    "location": "Cambridge",
    "Latitude": 52.205276,
    "Longitude": 0.119167
  },
  {
    "id": 9,
    "location": "London",
    "Latitude": 51.509865,
    "Longitude": -0.118092
  },
  {
    "id": 10,
    "location": "Manchester",
    "Latitude": 53.483959,
    "Longitude": -2.244644
  },
  {
    "id": 11,
    "location": "Bristol",
    "Latitude": 51.454514,
    "Longitude": -2.58791
  },
  {
    "id": 12,
    "location": "Glasgow",
    "Latitude": 55.860916,
    "Longitude": -4.251433
  },
  {
    "id": 13,
    "location": "Leicester",
    "Latitude": 52.633331,
    "Longitude": -1.133333
  },
  {
    "id": 14,
    "location": "Chester",
    "Latitude": 53.189999,
    "Longitude": -2.89
  },
  {
    "id": 15,
    "location": "Oxford",
    "Latitude": 51.752022,
    "Longitude": -1.257677
  },
  {
    "id": 16,
    "location": "Nottingham",
    "Latitude": 52.950001,
    "Longitude": -1.15
  },
  {
    "id": 17,
    "location": "Lancaster",
    "Latitude": 54.047001,
    "Longitude": -2.801
  },
  {
    "id": 18,
    "location": "Peterborough",
    "Latitude": 52.573921,
    "Longitude": -0.25083
  },
  {
    "id": 19,
    "location": "Norwich",
    "Latitude": 52.630886,
    "Longitude": 1.297355
  },
  {
    "id": 20,
    "location": "Southampton",
    "Latitude": 50.909698,
    "Longitude": -1.404351
  },
  {
    "id": 21,
    "location": "Carlisle",
    "Latitude": 54.8951,
    "Longitude": -2.9382
  },
  {
    "id": 23,
    "location": "Edinburgh",
    "Latitude": 55.953251,
    "Longitude": -3.189167
  },
  {
    "id": 25,
    "location": "Aberdeen",
    "Latitude": 57.149651,
    "Longitude": -2.099075
  }
]
